[
  {
    "gid": 37,
    "descripcion": "S.A.P.S. Dr. Sussini",
    "direccion": "Av. 3 de Abril y Chaco",
    "tipo": "S.A.P.S - SALA DE ATENCION PRIMARIA DE LA SALUD",
    "lng": -58.8476200920408,
    "lat":-27.4739247821531
  },
  {
    "gid": 42,
    "descripcion": "S.A.P.S. Dr. Santiago Lorenzo",
    "direccion": "Ramos Mejia y Tupac Amaru",
    "tipo": "S.A.P.S - SALA DE ATENCION PRIMARIA DE LA SALUD",
    "lng": -58.7926458007243,
    "lat":-27.5005159709291
  },
  {
    "gid": 43,
    "descripcion": "S.A.P.S. Dr. Korimblum",
    "direccion": "Berazategui y J.J. Castelli",
    "tipo": "S.A.P.S - SALA DE ATENCION PRIMARIA DE LA SALUD",
    "lng": -58.8105592384377,
    "lat":-27.4963014944356
  },
  {
    "gid": 44,
    "descripcion": "S.A.P.S. Dr. A. Malvido",
    "direccion": "Suecia S/N",
    "tipo": "S.A.P.S - SALA DE ATENCION PRIMARIA DE LA SALUD",
    "lng": -58.7825114296083,
    "lat":-27.5045956198145
  },
  {
    "gid": 86,
    "descripcion": "S.A.P.S. Paso martinez",
    "direccion": "Zona Rural",
    "tipo": "S.A.P.S - SALA DE ATENCION PRIMARIA DE LA SALUD",
    "lng": -58.65782542638,
    "lat":-27.5165440876048
  },
  {
    "gid": 46,
    "descripcion": "S.A.P.S. Bo Rio Parana",
    "direccion": "Mocoreta S/N",
    "tipo": "S.A.P.S - SALA DE ATENCION PRIMARIA DE LA SALUD",
    "lng": -58.8287446749592,
    "lat":-27.5152024029
  },
  {
    "gid": 50,
    "descripcion": "S.A.P.S. Dr. Semper",
    "direccion": "Benavidez 430",
    "tipo": "S.A.P.S - SALA DE ATENCION PRIMARIA DE LA SALUD",
    "lng": -58.7825444574904,
    "lat":-27.4596026190976
  },
  {
    "gid": 39,
    "descripcion": "S.A.P.S. Bo Guemes",
    "direccion": "Gascon entre Las Heras y Lamadrid",
    "tipo": "S.A.P.S - SALA DE ATENCION PRIMARIA DE LA SALUD",
    "lng": -58.7967643332789,
    "lat":-27.4861776634717
  },
  {
    "gid": 127,
    "descripcion": "S.A.P.S. Santa Catalina",
    "direccion": "Abelardo Hector Dimotta y Ramon Sixto Rios",
    "tipo": "S.A.P.S - SALA DE ATENCION PRIMARIA DE LA SALUD",
    "lng": -58.8041366710416,
    "lat":-27.5261212859953
  },
  {
    "gid": 38,
    "descripcion": "S.A.P.S. Manuel Gonzalez, Bo Lomas del Mirador",
    "direccion": "R. P. 5 km (Calle Manzini)",
    "tipo": "S.A.P.S - SALA DE ATENCION PRIMARIA DE LA SALUD",
    "lng": -58.767660988807,
    "lat":-27.4844118032146
  },
  {
    "gid": 48,
    "descripcion": "S.A.P.S. Dr. R. Vidal",
    "direccion": "R. P. 5 km 2 - calle 1",
    "tipo": "S.A.P.S - SALA DE ATENCION PRIMARIA DE LA SALUD",
    "lng": -58.7642248181804,
    "lat":-27.4925055009408
  },
  {
    "gid": 62,
    "descripcion": "S.A.P.S. Bo Pujol",
    "direccion": "Jose thellier y Av. Armenia",
    "tipo": "S.A.P.S - SALA DE ATENCION PRIMARIA DE LA SALUD",
    "lng": -58.8059160563217,
    "lat":-27.4674227378732
  },
  {
    "gid": 45,
    "descripcion": "S.A.P.S. Dr. Calmansh",
    "direccion": "Zarate 3400",
    "tipo": "S.A.P.S - SALA DE ATENCION PRIMARIA DE LA SALUD",
    "lng": -58.8471439393876,
    "lat":-27.4944210171644
  },
  {
    "gid": 47,
    "descripcion": "S.A.P.S. Dr. Guillermo Rawson",
    "direccion": "Av. Laprida y Av. centenario",
    "tipo": "S.A.P.S - SALA DE ATENCION PRIMARIA DE LA SALUD",
    "lng": -58.7883404875771,
    "lat":-27.4765040453677
  },
  {
    "gid": 41,
    "descripcion": "S.A.P.S. Dr. Manuel A. Gonzalez",
    "direccion": "Barcelona y Pje. Linares",
    "tipo": "S.A.P.S - SALA DE ATENCION PRIMARIA DE LA SALUD",
    "lng": -58.7907228148681,
    "lat":-27.4570744530951
  },
  {
    "gid": 70,
    "descripcion": "S.A.P.S. Villa Garcia",
    "direccion": "Pje. Paris al 4000",
    "tipo": "S.A.P.S - SALA DE ATENCION PRIMARIA DE LA SALUD",
    "lng": -58.8024184870106,
    "lat":-27.4779407818987
  },
  {
    "gid": 79,
    "descripcion": "S.A.P.S. Bo Quinta Ferre",
    "direccion": "Zacarias Sanchez al 400",
    "tipo": "S.A.P.S - SALA DE ATENCION PRIMARIA DE LA SALUD",
    "lng": -58.8065482148328,
    "lat":-27.4633434254442
  },
  {
    "gid": 69,
    "descripcion": "S.A.P.S. Bo Primera Junta",
    "direccion": "Ntra Señora de la Asuncion 2800 (esq R. Carrillo)",
    "tipo": "S.A.P.S - SALA DE ATENCION PRIMARIA DE LA SALUD",
    "lng": -58.8183671796931,
    "lat":-27.4906962701494
  },
  {
    "gid": 56,
    "descripcion": "S.A.P.S. Centro de Vacunacion",
    "direccion": "Av. Costanera gral san Martin y Salta",
    "tipo": "S.A.P.S - SALA DE ATENCION PRIMARIA DE LA SALUD",
    "lng": -58.8384384354732,
    "lat":-27.4613563015641
  },
  {
    "gid": 85,
    "descripcion": "S.A.P.S. Santa Margarita",
    "direccion": "Bo Santa Margarita (Puente Pexoa)",
    "tipo": "S.A.P.S - SALA DE ATENCION PRIMARIA DE LA SALUD",
    "lng": -58.7609506333706,
    "lat":-27.536317341198
  },
  {
    "gid": 34,
    "descripcion": "S.A.P.S. Dr. Marcelino Vera - Bo Cañada Quiroz",
    "direccion": "Av. Alejo Ruedas 2200",
    "tipo": "S.A.P.S - SALA DE ATENCION PRIMARIA DE LA SALUD",
    "lng": -58.7362643293002,
    "lat":-27.5430623480442
  },
  {
    "gid": 51,
    "descripcion": "S.A.P.S. Dr. Chercoff",
    "direccion": "R. N. 12 - km 9 - Yecoha",
    "tipo": "S.A.P.S - SALA DE ATENCION PRIMARIA DE LA SALUD",
    "lng": -58.7170748237828,
    "lat":-27.4293974892267
  },
  {
    "gid": 71,
    "descripcion": "S.A.P.S. Bo Villa Chiquita",
    "direccion": "Pirovano No 1988",
    "tipo": "S.A.P.S - SALA DE ATENCION PRIMARIA DE LA SALUD",
    "lng": -58.8060649227155,
    "lat":-27.4841257520561
  },
  {
    "gid": 32,
    "descripcion": "S.A.P.S. Dr. Manuel Cassuso",
    "direccion": "Av. Alta Gracia esq Los Atacamas",
    "tipo": "S.A.P.S - SALA DE ATENCION PRIMARIA DE LA SALUD",
    "lng": -58.813187161036,
    "lat":-27.5078798886069
  },
  {
    "gid": 31,
    "descripcion": "S.A.P.S. 33 Gdor. Elias Galvan",
    "direccion": "Av. Alberdi y Pizarro",
    "tipo": "S.A.P.S - SALA DE ATENCION PRIMARIA DE LA SALUD",
    "lng": -58.8468579509342,
    "lat":-27.4857231975671
  },
  {
    "gid": 76,
    "descripcion": "S.A.P.S. Bo Cichero",
    "direccion": "Cabral Juan y Pje. Itati",
    "tipo": "S.A.P.S - SALA DE ATENCION PRIMARIA DE LA SALUD",
    "lng": -58.8208726338129,
    "lat":-27.4591975171381
  },
  {
    "gid": 36,
    "descripcion": "S.A.P.S. Bo Esperanza",
    "direccion": "113 Viv. Mz B - Calle 2 - Lote 6",
    "tipo": "S.A.P.S - SALA DE ATENCION PRIMARIA DE LA SALUD",
    "lng": -58.7854203033225,
    "lat":-27.5439948201212
  },
  {
    "gid": 54,
    "descripcion": "S.A.P.S. Bo Itati",
    "direccion": "Amado Bompland 230",
    "tipo": "S.A.P.S - SALA DE ATENCION PRIMARIA DE LA SALUD",
    "lng": -58.8093436312496,
    "lat":-27.4627629738369
  },
  {
    "gid": 58,
    "descripcion": "S.A.P.S. Bo Anahi",
    "direccion": "Cristo Obrero 310 y Navea",
    "tipo": "S.A.P.S - SALA DE ATENCION PRIMARIA DE LA SALUD",
    "lng": -58.798359321125,
    "lat":-27.4640966737108
  },
  {
    "gid": 73,
    "descripcion": "S.A.P.S. Bo. San Marcos",
    "direccion": "Roque Perez S/N",
    "tipo": "S.A.P.S - SALA DE ATENCION PRIMARIA DE LA SALUD",
    "lng": -58.822726525709,
    "lat":-27.4888688230558
  },
  {
    "gid": 88,
    "descripcion": "S.A.P.S. Dr. Alberto Lifchitzs",
    "direccion": "Roldan Belizario E/ H. Quiroga y M. Mujica Lainez",
    "tipo": "S.A.P.S - SALA DE ATENCION PRIMARIA DE LA SALUD",
    "lng": -58.8053591907517,
    "lat":-27.5077820670782
  },
  {
    "gid": 82,
    "descripcion": "S.A.P.S. Dra. Rossi Candia",
    "direccion": "Dr. L. F. Leloir entre Calle 459 y Calle 461",
    "tipo": "S.A.P.S - SALA DE ATENCION PRIMARIA DE LA SALUD",
    "lng": -58.8299788758305,
    "lat":-27.5035262565474
  },
  {
    "gid": 89,
    "descripcion": "S.A.P.S. Santa Marta",
    "direccion": "AV. J. R. Vidal y Argentina",
    "tipo": "S.A.P.S - SALA DE ATENCION PRIMARIA DE LA SALUD",
    "lng": -58.8418538628947,
    "lat":-27.5025042695548
  },
  {
    "gid": 91,
    "descripcion": "S.A.P.S. Dr. Blugerman",
    "direccion": "Montes de Oca y Gutnisky",
    "tipo": "S.A.P.S - SALA DE ATENCION PRIMARIA DE LA SALUD",
    "lng": -58.8522157423324,
    "lat":-27.4888184941666
  },
  {
    "gid": 75,
    "descripcion": "S.A.P.S. Dr. Mauricio Open",
    "direccion": "Ruta Nro 12 - km 1035 - Perichon",
    "tipo": "S.A.P.S - SALA DE ATENCION PRIMARIA DE LA SALUD",
    "lng": -58.750011420054,
    "lat":-27.4475382375042
  }
]